{
  "SNVG": {
    "VenueCode": "SNVG",
    "VenueName": "Srinivasa Theater: Giddalur",
    "VenueAddress": "Swamy, Pathala Nageswara Temple Road, Giddalur, Andhra Pradesh 523357, India",
    "City": "Giddalur",
    "State": "Andhra Pradesh",
    "RegionCode": "GDAL",
    "SubRegionCode": "GDAL",
    "Latitude": "15.3721",
    "Longitude": "78.9236",
    "AvailableFormats": "2D"
  },
  "KRGD": {
    "VenueCode": "KRGD",
    "VenueName": "Krishna Theater: Giddalur",
    "VenueAddress": "Racherla Gate Center, Racherla Road, Giddalur, Andhra Pradesh 523357, India",
    "City": "Giddalur",
    "State": "Andhra Pradesh",
    "RegionCode": "GDAL",
    "SubRegionCode": "GDAL",
    "Latitude": "15.3809",
    "Longitude": "78.9312",
    "AvailableFormats": "2D"
  },
  "SLJJ": {
    "VenueCode": "SLJJ",
    "VenueName": "Sri Lakshmi Talkies A/c 2K Dolby: Jangareddy Gudem",
    "VenueAddress": "Eluru Jangareddygudem Road, Near ICICI Bank, Jangareddy Gudem, Andhra Pradesh 534447, India",
    "City": "Jangareddy Gudem",
    "State": "Andhra Pradesh",
    "RegionCode": "JANG",
    "SubRegionCode": "JANG",
    "Latitude": "17.1174",
    "Longitude": "81.2977",
    "AvailableFormats": "2D"
  },
  "SPTJ": {
    "VenueCode": "SPTJ",
    "VenueName": "Sri Padma Theater A/C 2K Dolby: Jangareddy Gudem",
    "VenueAddress": "Buttaigudem Road, Near Vigneshwara Motors, Jangareddy Gudem, Andhra Pradesh 534447, India",
    "City": "Jangareddy Gudem",
    "State": "Andhra Pradesh",
    "RegionCode": "JANG",
    "SubRegionCode": "JANG",
    "Latitude": "17.1274",
    "Longitude": "81.3007",
    "AvailableFormats": "2D"
  },
  "SWJG": {
    "VenueCode": "SWJG",
    "VenueName": "Sowbhagya Theatre: Jangareddy Gudem",
    "VenueAddress": "Near State Bank of India, Next to Sowbhagya Lodge, Jangareddy Gudem, Andhra Pradesh 534447, India",
    "City": "Jangareddy Gudem",
    "State": "Andhra Pradesh",
    "RegionCode": "JANG",
    "SubRegionCode": "JANG",
    "Latitude": "17.118",
    "Longitude": "81.2964",
    "AvailableFormats": "2D"
  },
  "LKRT": {
    "VenueCode": "LKRT",
    "VenueName": "Laxmi AC Deluxe Theatre: Korutla",
    "VenueAddress": "Indira Road, Raheempura, Korutla, Telangana 505326, India",
    "City": "Korutla",
    "State": "Telangana",
    "RegionCode": "KCKA",
    "SubRegionCode": "KCKA",
    "Latitude": "18.8266",
    "Longitude": "78.7124",
    "AvailableFormats": "2D"
  },
  "KCKA": {
    "VenueCode": "KCKA",
    "VenueName": "Kinnera Deluxe Theatre: Korutla",
    "VenueAddress": "Nizamabad - Mancherial Road, NH 63, Near LIC of India Satellite Ofc, Korutla, Telangana 505326, India",
    "City": "Korutla",
    "State": "Telangana",
    "RegionCode": "KCKA",
    "SubRegionCode": "KCKA",
    "Latitude": "18.8262",
    "Longitude": "78.7134",
    "AvailableFormats": "2D"
  },
  "SNCR": {
    "VenueCode": "SNCR",
    "VenueName": "Sanelite Cinemas (Pethapur): Gandhinagar",
    "VenueAddress": "212 Bosky The Mall, Pethapur Cross Road, Pethapur, Gandhinagar, Gujarat 382610, India",
    "City": "Gandhinagar",
    "State": "Gujarat",
    "RegionCode": "GNAGAR",
    "SubRegionCode": "GNAGAR",
    "Latitude": "23.2674",
    "Longitude": "72.6674",
    "AvailableFormats": "2D"
  },
  "SMKL": {
    "VenueCode": "SMKL",
    "VenueName": "Sanskruti Movieplex: Kalol",
    "VenueAddress": "Old Aadhar Mall, Ahmedabad-Mehsana Highway, Opposite St Work Shop, Kalol (Gandhinagar), Gujarat 382721, India",
    "City": "Kalol (Gandhinagar)",
    "State": "Gujarat",
    "RegionCode": "KALG",
    "SubRegionCode": "KALG",
    "Latitude": "23.2318",
    "Longitude": "72.5051",
    "AvailableFormats": "2D"
  },
  "GCFA": {
    "VenueCode": "GCFA",
    "VenueName": "Gandheswari Chitralaya: Fulkushma",
    "VenueAddress": "Gandheswari Chitralaya, Bankura Road, Fulkusma, West Bengal 722134, India",
    "City": "Fulkusma",
    "State": "West Bengal",
    "RegionCode": "FULK",
    "SubRegionCode": "FULK",
    "Latitude": "22.7119",
    "Longitude": "86.8696",
    "AvailableFormats": "2D"
  },
  "DDCK": {
    "VenueCode": "DDCK",
    "VenueName": "DD Cinemas: Cine Krishna Mall, Hajipur",
    "VenueAddress": "Cine Krishna Mall ,1st Floor, Cinema Road, Hajipur, Bihar 844101, India",
    "City": "Hajipur",
    "State": "Bihar",
    "RegionCode": "HAJI",
    "SubRegionCode": "HAJI",
    "Latitude": "25.6943",
    "Longitude": "85.2116",
    "AvailableFormats": "2D|3D"
  },
  "NCHJ": {
    "VenueCode": "NCHJ",
    "VenueName": "Navin Cinema: Hajipur",
    "VenueAddress": "Ram Balak Chowk, Naveen Cinema Road, JP Colony, Yadav Nagar, Near Commmunity Hall, Hajipur, Bihar 844101, India",
    "City": "Hajipur",
    "State": "Bihar",
    "RegionCode": "HAJI",
    "SubRegionCode": "HAJI",
    "Latitude": "25.6942",
    "Longitude": "85.215",
    "AvailableFormats": "2D"
  },
  "RDMA": {
    "VenueCode": "RDMA",
    "VenueName": "RD Multiplex: Atraulia",
    "VenueAddress": "Vill Kantalpur Post, Atarulia Tah Bhooranpur, Atarulia Mahrajganj Road, Azamgarh, Atraulia, Uttar Pradesh 223223, India",
    "City": "Atraulia",
    "State": "Uttar Pradesh",
    "RegionCode": "ATRA",
    "SubRegionCode": "ATRA",
    "Latitude": "26.3369",
    "Longitude": "82.9384",
    "AvailableFormats": "2D"
  },
  "SVSV": {
    "VenueCode": "SVSV",
    "VenueName": "Sri Vasavi Kalamandir A/C DTS: Bobbili",
    "VenueAddress": "Vasavi Theatre Street, Maharanipeta, Bobbili, Andhra Pradesh 535558, India",
    "City": "Bobbili",
    "State": "Andhra Pradesh",
    "RegionCode": "BOBB",
    "SubRegionCode": "BOBB",
    "Latitude": "18.5742",
    "Longitude": "83.3592",
    "AvailableFormats": "2D"
  },
  "SCJG": {
    "VenueCode": "SCJG",
    "VenueName": "Suraj Cineplex: Junagadh",
    "VenueAddress": "Hajiyani Baug, College Road, Near Suraj Funworld, Gandhi Gram, Junagadh, Gujarat 362001, India",
    "City": "Junagadh",
    "State": "Gujarat",
    "RegionCode": "JUGH",
    "SubRegionCode": "JUGH",
    "Latitude": "21.5081",
    "Longitude": "70.458",
    "AvailableFormats": "2D"
  },
  "VKLP": {
    "VenueCode": "VKLP",
    "VenueName": "Vijay Cinema: Kalol, Panchmahal",
    "VenueAddress": "Jantral, Navapura Main Road, Kalol (Panchmahal), Gujarat 389330, India",
    "City": "Kalol (Panchmahal)",
    "State": "Gujarat",
    "RegionCode": "PANH",
    "SubRegionCode": "PANH",
    "Latitude": "22.6074",
    "Longitude": "73.4649",
    "AvailableFormats": "2D"
  },
  "NWCC": {
    "VenueCode": "NWCC",
    "VenueName": "New Capitol Cinema: Nainital",
    "VenueAddress": "Jubilee Hall Apartments, Mall Road,Mallital, Opp Nainital Stadium, Nainital, Uttarakhand 263002, India",
    "City": "Nainital",
    "State": "Uttarakhand",
    "RegionCode": "NAIN",
    "SubRegionCode": "NAIN",
    "Latitude": "29.3902",
    "Longitude": "79.4548",
    "AvailableFormats": "2D"
  },
  "VKNS": {
    "VenueCode": "VKNS",
    "VenueName": "VKNS Cinemas: Sultanpur",
    "VenueAddress": "2nd Floor, VKNS Mall, Opposite DM Residence, Civil Line, Sultanpur, Uttar Pradesh 228001, India",
    "City": "Sultanpur",
    "State": "Uttar Pradesh",
    "RegionCode": "SLUT",
    "SubRegionCode": "SLUT",
    "Latitude": "26.2651",
    "Longitude": "82.0744",
    "AvailableFormats": "2D"
  },
  "SDDP": {
    "VenueCode": "SDDP",
    "VenueName": "Shubham DD Plex: Sultanpur",
    "VenueAddress": "Dariyapur Road, Behind Dr. Ram Ji Gupta Eye Hospital, Khairabad, Sultanpur, Uttar Pradesh 228001, India",
    "City": "Sultanpur",
    "State": "Uttar Pradesh",
    "RegionCode": "SLUT",
    "SubRegionCode": "SLUT",
    "Latitude": "26.2552",
    "Longitude": "82.0691",
    "AvailableFormats": "2D"
  },
  "ACSI": {
    "VenueCode": "ACSI",
    "VenueName": "Adhiraj Cinemas: Shamli",
    "VenueAddress": "Shamli-Kairana Road, Near Shubh Lagan Marriage Hall, Shamli, Uttar Pradesh 247776, India",
    "City": "Shamli",
    "State": "Uttar Pradesh",
    "RegionCode": "SHAM",
    "SubRegionCode": "SHAM",
    "Latitude": "29.4176",
    "Longitude": "77.2509",
    "AvailableFormats": "2D"
  },
  "SATG": {
    "VenueCode": "SATG",
    "VenueName": "Shankar Talkies: Gauribidanur",
    "VenueAddress": "Shankar Talkies, Railway Station Road, Gauribidanur, Karnataka 561208, India",
    "City": "Gauribidanur",
    "State": "Karnataka",
    "RegionCode": "GAUR",
    "SubRegionCode": "GAUR",
    "Latitude": "13.6118",
    "Longitude": "77.514",
    "AvailableFormats": "2D"
  },
  "SCMW": {
    "VenueCode": "SCMW",
    "VenueName": "Satyam Cinemax: Warora",
    "VenueAddress": "Hanuman Warad Yatra Road, Near Warora Bus Stand, Warora, Maharashtra 442907, India",
    "City": "Warora",
    "State": "Maharashtra",
    "RegionCode": "WRRA",
    "SubRegionCode": "WRRA",
    "Latitude": "20.2312",
    "Longitude": "79.0092",
    "AvailableFormats": "2D"
  },
  "LKTK": {
    "VenueCode": "LKTK",
    "VenueName": "Lakshmi Raam Theatre: Karur",
    "VenueAddress": "No 61, Dindigul Road, Opposite Bombay sweets and Bakery, Karur, Tamil Nadu 639001, India",
    "City": "Karur",
    "State": "Tamil Nadu",
    "RegionCode": "KARU",
    "SubRegionCode": "KARU",
    "Latitude": "10.9587",
    "Longitude": "78.0829",
    "AvailableFormats": "2D"
  },
  "VCKV": {
    "VenueCode": "VCKV",
    "VenueName": "Veera Cinemas A/C 4K Dolby Atmos: Vellakoil",
    "VenueAddress": "224, Kovai Main Road, Vellakovil-Tiruppur, Vellakoil, Tamil Nadu 638111, India",
    "City": "Vellakoil",
    "State": "Tamil Nadu",
    "RegionCode": "KGKM",
    "SubRegionCode": "KGKM",
    "Latitude": "10.9486",
    "Longitude": "77.7029",
    "AvailableFormats": "2D"
  },
  "KKPE": {
    "VenueCode": "KKPE",
    "VenueName": "Krishna Theatre Dolby 7.1: Koluthupalayam",
    "VenueAddress": "State Highway 172A, Koluthupalayam, Erode, Near Kombanaipudur Bus Stop, Erode, Tamil Nadu 638152, India",
    "City": "Erode",
    "State": "Tamil Nadu",
    "RegionCode": "KARU",
    "SubRegionCode": "KARU",
    "Latitude": "11.1297",
    "Longitude": "77.8609",
    "AvailableFormats": "2D"
  },
  "KIGH": {
    "VenueCode": "KIGH",
    "VenueName": "Kingfisher Multiplex: Mandla",
    "VenueAddress": "Maharajpur, Kolpewadi, Mandla Road, Rangoli Restaurant, Mandla, Madhya Pradesh 481665, India",
    "City": "Mandla",
    "State": "Madhya Pradesh",
    "RegionCode": "MADL",
    "SubRegionCode": "MADL",
    "Latitude": "22.5624",
    "Longitude": "80.3518",
    "AvailableFormats": "2D"
  },
  "SRPM": {
    "VenueCode": "SRPM",
    "VenueName": "Sivaram Theater: Pamarru",
    "VenueAddress": "NH65, Near State Bank of India, Pamarru, Andhra Pradesh 521157, India",
    "City": "Pamarru",
    "State": "Andhra Pradesh",
    "RegionCode": "PAMA",
    "SubRegionCode": "PAMA",
    "Latitude": "16.3225",
    "Longitude": "80.9602",
    "AvailableFormats": "2D"
  },
  "SCAH": {
    "VenueCode": "SCAH",
    "VenueName": "Sanmax Cinemas: Azamgarh",
    "VenueAddress": "Vishal Multiplex, Sidhari, Jamalpur Baz Bahadur, Azamgarh, Uttar Pradesh 276001, India",
    "City": "Azamgarh",
    "State": "Uttar Pradesh",
    "RegionCode": "AZMG",
    "SubRegionCode": "AZMG",
    "Latitude": "26.0426",
    "Longitude": "83.1878",
    "AvailableFormats": "2D|3D"
  },
  "MUTA": {
    "VenueCode": "MUTA",
    "VenueName": "Murli DD Cinemas: Azmagarh",
    "VenueAddress": "City Life Mall, Paharpur, Azamgarh Dohrighat Gorakhpur Road, Near Bhairo Baba Mandir Maharajgang, Azamgarh, Uttar Pradesh 276001, India",
    "City": "Azamgarh",
    "State": "Uttar Pradesh",
    "RegionCode": "AZMG",
    "SubRegionCode": "AZMG",
    "Latitude": "26.0749",
    "Longitude": "83.1866",
    "AvailableFormats": "2D"
  },
  "SEPU": {
    "VenueCode": "SEPU",
    "VenueName": "Sri Venkateswara A/C Dolby Sound: Penuganchiprolu",
    "VenueAddress": "Near Ammavari Mandapam, By-Pass Road, Penuganchiprolu, Andhra Pradesh 521190, India",
    "City": "Penuganchiprolu",
    "State": "Andhra Pradesh",
    "RegionCode": "PENU",
    "SubRegionCode": "PENU",
    "Latitude": "16.9053",
    "Longitude": "80.2408",
    "AvailableFormats": "2D"
  },
  "INOA": {
    "VenueCode": "INOA",
    "VenueName": "INOX: Osia A Wing Margao, Goa",
    "VenueAddress": "A Wing, 2nd Floor, Osia Commercial Arcade, SGPDA Market Complex, Margao, Goa, Goa 403601, India",
    "City": "Goa",
    "State": "Goa",
    "RegionCode": "BTBM",
    "SubRegionCode": "BTBM",
    "Latitude": "15.2859",
    "Longitude": "73.9572",
    "AvailableFormats": "2D|3D"
  },
  "BASK": {
    "VenueCode": "BASK",
    "VenueName": "Bhaskarjyoti Cinema: Sivasagar",
    "VenueAddress": "AT Road, Bhatiapar, Near Bhatiapar Petrol Pump, Sivasagar, Assam 785697, India",
    "City": "Sivasagar",
    "State": "Assam",
    "RegionCode": "SVSG",
    "SubRegionCode": "SVSG",
    "Latitude": "26.953",
    "Longitude": "94.5718",
    "AvailableFormats": "2D"
  },
  "NECB": {
    "VenueCode": "NECB",
    "VenueName": "Neelam Cinema: Billawar",
    "VenueAddress": "Tilla Billawar, Near Bharat Stone Crusher, Billawar, Jammu and Kashmir 184203, India",
    "City": "Billawar",
    "State": "Jammu and Kashmir",
    "RegionCode": "BILL",
    "SubRegionCode": "BILL",
    "Latitude": "32.6136",
    "Longitude": "75.6041",
    "AvailableFormats": "2D"
  },
  "GTTG": {
    "VenueCode": "GTTG",
    "VenueName": "Ganesh Talkies: Talcher",
    "VenueAddress": "Angul Talcher Road, Next to Hingula Jewellers, Talcher, Odisha 759100, India",
    "City": "Talcher",
    "State": "Odisha",
    "RegionCode": "TALC",
    "SubRegionCode": "TALC",
    "Latitude": "20.9469",
    "Longitude": "85.2157",
    "AvailableFormats": "2D"
  },
  "ASSA": {
    "VenueCode": "ASSA",
    "VenueName": "Asian Srinivasa: Mancherial",
    "VenueAddress": "Station Road, Mancherial, Mancherial, Telangana 504302, India",
    "City": "Mancherial",
    "State": "Telangana",
    "RegionCode": "MANC",
    "SubRegionCode": "MANC",
    "Latitude": "18.8705",
    "Longitude": "79.4472",
    "AvailableFormats": "2D"
  },
  "ANCL": {
    "VenueCode": "ANCL",
    "VenueName": "Anbu Cinemas A/C 7.1: Lalgudi",
    "VenueAddress": "No.79F, Main Road, Opposite IOB, Lalgudi, Tamil Nadu 621601, India",
    "City": "Lalgudi",
    "State": "Tamil Nadu",
    "RegionCode": "LALG",
    "SubRegionCode": "LALG",
    "Latitude": "10.8747",
    "Longitude": "78.8186",
    "AvailableFormats": "2D"
  },
  "GCTI": {
    "VenueCode": "GCTI",
    "VenueName": "Galleria Cinemas: ATC Mall, Tinsukia",
    "VenueAddress": "ATC Mall, GNB Road, Tinsukia, Assam 786125, India",
    "City": "Tinsukia",
    "State": "Assam",
    "RegionCode": "TINS",
    "SubRegionCode": "TINS",
    "Latitude": "27.492",
    "Longitude": "95.3617",
    "AvailableFormats": "2D"
  },
  "RCTS": {
    "VenueCode": "RCTS",
    "VenueName": "Rangghar Cinema: Tinsukia",
    "VenueAddress": "G.N.B Road, GPO, Near State Bank of India, Tinsukia, Assam 786125, India",
    "City": "Tinsukia",
    "State": "Assam",
    "RegionCode": "TINS",
    "SubRegionCode": "TINS",
    "Latitude": "27.4882",
    "Longitude": "95.355",
    "AvailableFormats": "2D"
  },
  "ACNL": {
    "VenueCode": "ACNL",
    "VenueName": "Ajanta Cineplex: Nilanga, Latur",
    "VenueAddress": "Nilanga Main Road, Opposite Nilanga Bus Stop, Nilanga, Maharashtra 413521, India",
    "City": "Nilanga",
    "State": "Maharashtra",
    "RegionCode": "NLNG",
    "SubRegionCode": "NLNG",
    "Latitude": "18.1276",
    "Longitude": "76.7493",
    "AvailableFormats": "2D"
  },
  "MYCT": {
    "VenueCode": "MYCT",
    "VenueName": "MY Cinemas: Thalayolaparambu, Kerala",
    "VenueAddress": "Thalayolaparambu P.O,Kottayam, Ernakulam Road, Ernakulam Road, Near Bharat Petrol Pump, Thalayolaparambu, Kerala 686605, India",
    "City": "Thalayolaparambu",
    "State": "Kerala",
    "RegionCode": "THAL",
    "SubRegionCode": "THAL",
    "Latitude": "9.78555",
    "Longitude": "76.4529",
    "AvailableFormats": "2D"
  },
  "NMHT": {
    "VenueCode": "NMHT",
    "VenueName": "Nice Movie House: Thalayolaparambu",
    "VenueAddress": "Vaikom Road, Thalayolaparambu, Kottayam, Near Medicity Cooperative Hospital, Thalayolaparambu, Kerala 686605, India",
    "City": "Thalayolaparambu",
    "State": "Kerala",
    "RegionCode": "THAL",
    "SubRegionCode": "THAL",
    "Latitude": "9.78703",
    "Longitude": "76.4405",
    "AvailableFormats": "2D"
  },
  "MDIT": {
    "VenueCode": "MDIT",
    "VenueName": "A-Moorthys Drive-In Theatre: Trichy",
    "VenueAddress": "484 Navalurkottapattu, Dindigul High Road, Trichy, Tamil Nadu 620009, India",
    "City": "Trichy",
    "State": "Tamil Nadu",
    "RegionCode": "TRIC",
    "SubRegionCode": "TRIC",
    "Latitude": "10.7464",
    "Longitude": "78.59",
    "AvailableFormats": "2D"
  },
  "LATG": {
    "VenueCode": "LATG",
    "VenueName": "LA CINEMA MARIS COMPLEX RGB LASER: TRICHY",
    "VenueAddress": "Maris Theater Complex, Fort Station Road, Trichy, Tamil Nadu 620002, India",
    "City": "Trichy",
    "State": "Tamil Nadu",
    "RegionCode": "TRIC",
    "SubRegionCode": "TRIC",
    "Latitude": "10.8274",
    "Longitude": "78.6894",
    "AvailableFormats": "2D"
  },
  "SMTY": {
    "VenueCode": "SMTY",
    "VenueName": "LA Cinema Sona Mina RGB Laser: Trichy",
    "VenueAddress": "8G Williams Rd, Melapudur,Cantonment,Tiruchirappalli, Near Central Bus Stand, Trichy, Tamil Nadu 620001, India",
    "City": "Trichy",
    "State": "Tamil Nadu",
    "RegionCode": "TRIC",
    "SubRegionCode": "TRIC",
    "Latitude": "10.8012",
    "Longitude": "78.6839",
    "AvailableFormats": "2D"
  },
  "CVCT": {
    "VenueCode": "CVCT",
    "VenueName": "Cauvery Cinemas 4K RGB LASER: Trichy",
    "VenueAddress": "Heber Road, Palakarai, Trichy, Near Corporation Park, Trichy, Tamil Nadu 620001, India",
    "City": "Trichy",
    "State": "Tamil Nadu",
    "RegionCode": "TRIC",
    "SubRegionCode": "TRIC",
    "Latitude": "10.8088",
    "Longitude": "78.6955",
    "AvailableFormats": "2D"
  },
  "RAMB": {
    "VenueCode": "RAMB",
    "VenueName": "Ramba A/C RGB Laser Dolby Atmos: Trichy",
    "VenueAddress": "Karur Bypass road, Near Chathram Bus stand, Trichy, Tamil Nadu 620002, India",
    "City": "Trichy",
    "State": "Tamil Nadu",
    "RegionCode": "TRIC",
    "SubRegionCode": "TRIC",
    "Latitude": "10.8344",
    "Longitude": "78.6935",
    "AvailableFormats": "2D"
  },
  "TGMS": {
    "VenueCode": "TGMS",
    "VenueName": "Megastar Cinemas: Premium Large Format DOLBY ATMOS",
    "VenueAddress": "Mega Star, Salai Road Tiruchirappalli, Annamalai Nagar, Trichy, Tamil Nadu 620003, India",
    "City": "Trichy",
    "State": "Tamil Nadu",
    "RegionCode": "TRIC",
    "SubRegionCode": "TRIC",
    "Latitude": "10.8273",
    "Longitude": "78.6862",
    "AvailableFormats": "2D"
  },
  "BHEL": {
    "VenueCode": "BHEL",
    "VenueName": "BHELEC Cinema A/C Dolby 7.1: Trichy",
    "VenueAddress": "Kamarajapuram BHEL Township, BHEL Tiruchirappali Complex area,Thiruverumbur,Trichy, Near BHEL Training Center, Trichy, Tamil Nadu 620022, India",
    "City": "Trichy",
    "State": "Tamil Nadu",
    "RegionCode": "TRIC",
    "SubRegionCode": "TRIC",
    "Latitude": "10.7695",
    "Longitude": "78.7974",
    "AvailableFormats": "2D"
  },
  "SHCT": {
    "VenueCode": "SHCT",
    "VenueName": "Shanthi Cinemas A/C 4K DOLBY ATMOS: Thiruverumbur",
    "VenueAddress": "Thanjavur Main Road, Thiruverumbur, Tiruchirappalli, Trichy, Tamil Nadu 620013, India",
    "City": "Trichy",
    "State": "Tamil Nadu",
    "RegionCode": "TRIC",
    "SubRegionCode": "TRIC",
    "Latitude": "10.7841",
    "Longitude": "78.7776",
    "AvailableFormats": "2D"
  },
  "SVCT": {
    "VenueCode": "SVCT",
    "VenueName": "Sri Venkatesa Cinemas A/C Dolby Atmos",
    "VenueAddress": "VS Nagar, Thiruvanaikoil, Srirangam, Near TVS Shriraj Agencies, Trichy, Tamil Nadu 620005, India",
    "City": "Trichy",
    "State": "Tamil Nadu",
    "RegionCode": "TRIC",
    "SubRegionCode": "TRIC",
    "Latitude": "10.8586",
    "Longitude": "78.7026",
    "AvailableFormats": "2D"
  },
  "MRIY": {
    "VenueCode": "MRIY",
    "VenueName": "Mariyam Cinemas A/C 4K: Trichy",
    "VenueAddress": "No-228/1, Sangiliyandapuram Main Road, Trichy, Tamil Nadu 620001, India",
    "City": "Trichy",
    "State": "Tamil Nadu",
    "RegionCode": "TRIC",
    "SubRegionCode": "TRIC",
    "Latitude": "10.7984",
    "Longitude": "78.7042",
    "AvailableFormats": "2D"
  },
  "SARO": {
    "VenueCode": "SARO",
    "VenueName": "Saroja Cinemas 2K A/C, Ariyamangalam: Trichy",
    "VenueAddress": "Thanjavur Kula St, Rail Nagar,Tiruchchirappalli, Near Anjappar Chettinadu Restaurant, Trichy, Tamil Nadu 620002, India",
    "City": "Trichy",
    "State": "Tamil Nadu",
    "RegionCode": "TRIC",
    "SubRegionCode": "TRIC",
    "Latitude": "10.805",
    "Longitude": "78.7319",
    "AvailableFormats": "2D"
  },
  "STCT": {
    "VenueCode": "STCT",
    "VenueName": "Star Theatre A/C DTS: Trichy",
    "VenueAddress": "No 77/174, Madurai Road, Palakarai, Near FGM Complex, Trichy, Tamil Nadu 620008, India",
    "City": "Trichy",
    "State": "Tamil Nadu",
    "RegionCode": "TRIC",
    "SubRegionCode": "TRIC",
    "Latitude": "10.8166",
    "Longitude": "78.6929",
    "AvailableFormats": "2D"
  },
  "JKKC": {
    "VenueCode": "JKKC",
    "VenueName": "Jothi Theatre A/C 4K 7.1 (Viralimalai): Trichy",
    "VenueAddress": "Maduraimain Road, Viralimalai , Pudukottai, Viralimalai, Tamil Nadu 621316, India",
    "City": "Viralimalai",
    "State": "Tamil Nadu",
    "RegionCode": "PUDH",
    "SubRegionCode": "PUDH",
    "Latitude": "10.5971",
    "Longitude": "78.544",
    "AvailableFormats": "2D"
  },
  "PLTT": {
    "VenueCode": "PLTT",
    "VenueName": "Palace Theatre: Tiruchirappalli",
    "VenueAddress": "162, Madurai Road, Palakarai, Sangillyandapuram, Opposite Inspector of Matriculation Schools, Education Office, Trichy, Tamil Nadu 620008, India",
    "City": "Trichy",
    "State": "Tamil Nadu",
    "RegionCode": "TRIC",
    "SubRegionCode": "TRIC",
    "Latitude": "10.8151",
    "Longitude": "78.6933",
    "AvailableFormats": "2D"
  },
  "SRNT": {
    "VenueCode": "SRNT",
    "VenueName": "Sri Rengaraj Talkies: Tiruchirappalli",
    "VenueAddress": "6B 1/5 EVS Street, Ranga Nagar, Srirangam, Trichy, Tamil Nadu 620006, India",
    "City": "Trichy",
    "State": "Tamil Nadu",
    "RegionCode": "TRIC",
    "SubRegionCode": "TRIC",
    "Latitude": "10.8554",
    "Longitude": "78.6901",
    "AvailableFormats": "2D"
  },
  "YAST": {
    "VenueCode": "YAST",
    "VenueName": "Yaashitaa Multiplex: Palampur",
    "VenueAddress": "Dharamshala Road, Ghuggar, Near Sarovar Portico, District Kangra, Palampur, Himachal Pradesh 176061, India",
    "City": "Palampur",
    "State": "Himachal Pradesh",
    "RegionCode": "PALM",
    "SubRegionCode": "PALM",
    "Latitude": "32.1111",
    "Longitude": "76.532",
    "AvailableFormats": "2D"
  },
  "PERL": {
    "VenueCode": "PERL",
    "VenueName": "Pearl Cinema: Palampur",
    "VenueAddress": "Maranda, Kasoti, Mandi - Pathankot Road, Palampur, Himachal Pradesh 176102, India",
    "City": "Palampur",
    "State": "Himachal Pradesh",
    "RegionCode": "PALM",
    "SubRegionCode": "PALM",
    "Latitude": "32.0841",
    "Longitude": "76.5133",
    "AvailableFormats": "2D"
  },
  "CICM": {
    "VenueCode": "CICM",
    "VenueName": "Chitranjali Cinema: Math Chandipur",
    "VenueAddress": "Mayukh Gift Corner, Nandigram Road, Math Chandipur, West Bengal 721659, India",
    "City": "Math Chandipur",
    "State": "West Bengal",
    "RegionCode": "MPUR",
    "SubRegionCode": "MPUR",
    "Latitude": "22.0886",
    "Longitude": "87.8576",
    "AvailableFormats": "2D"
  },
  "MMTR": {
    "VenueCode": "MMTR",
    "VenueName": "Dhanya Remya: Kottayam",
    "VenueAddress": "Main Central Road, Kollam - Theni Highway, Near BSNL Bhavan, Kottayam, Kerala 686001, India",
    "City": "Kottayam",
    "State": "Kerala",
    "RegionCode": "ETTU",
    "SubRegionCode": "ETTU",
    "Latitude": "9.5866",
    "Longitude": "76.5213",
    "AvailableFormats": "2D"
  },
  "ABTK": {
    "VenueCode": "ABTK",
    "VenueName": "Abhilash Theatre 4K: Kottayam",
    "VenueAddress": "M.C Road, Opp Kalyan Jewellery, Near Asha Theatre, Kottayam, Kerala 686001, India",
    "City": "Kottayam",
    "State": "Kerala",
    "RegionCode": "ETTU",
    "SubRegionCode": "ETTU",
    "Latitude": "9.58599",
    "Longitude": "76.5244",
    "AvailableFormats": "2D"
  },
  "ATYY": {
    "VenueCode": "ATYY",
    "VenueName": "Anand Theatre Triple Beam 3D: Kottayam",
    "VenueAddress": "TB Road, Eerayil Kadavu, Near Asha Theatre, Kottayam, Kerala 686001, India",
    "City": "Kottayam",
    "State": "Kerala",
    "RegionCode": "ETTU",
    "SubRegionCode": "ETTU",
    "Latitude": "9.58613",
    "Longitude": "76.5241",
    "AvailableFormats": "2D"
  },
  "ASTK": {
    "VenueCode": "ASTK",
    "VenueName": "Asha Theatre: Kottayam",
    "VenueAddress": "T.B Road, Near Ksrtc Bus Stand, Near Abhilash Theater, Kottayam, Kerala 686001, India",
    "City": "Kottayam",
    "State": "Kerala",
    "RegionCode": "ETTU",
    "SubRegionCode": "ETTU",
    "Latitude": "9.58609",
    "Longitude": "76.5245",
    "AvailableFormats": "2D"
  },
  "VVCK": {
    "VenueCode": "VVCK",
    "VenueName": "Velvet View Cinemas: Kumarakom",
    "VenueAddress": "SH42, Athikkalam, Kumarakom, Kerala 686563, India",
    "City": "Kumarakom",
    "State": "Kerala",
    "RegionCode": "KMOA",
    "SubRegionCode": "KMOA",
    "Latitude": "9.59286",
    "Longitude": "76.436",
    "AvailableFormats": "2D"
  }
}
